,City,Country,Latitude,Longitude,Elevation,Max Temp,Humidity,Wind Speed,Cloudiness,Date,Adj Temp
0,Srandakan,ID,-7.94,110.25,23.20000076,71.26,92,3.76,64,1538009571,70.99359578
1,Saint-Philippe,RE,-21.36,55.77,29.17001724,69.8,59,2.24,0,1538006400,69.46504244
2,Forbes,AU,-33.38,148.01,241.7031097,58.39,84,9.46,0,1538009575,55.61453769
3,Vila Franca Do Campo,PT,37.72,-25.43,32.08849335,73.4,83,13.87,20,1538008200,73.03152976
4,Fortuna,US,40.6,-124.16,25.87536621,53.6,87,8.05,20,1538008740,53.30287472
5,Arraial Do Cabo,BR,-22.97,-42.02,8.566552162,75.49,82,26.35,0,1538009575,75.3916308
6,Rikitea,PF,-23.12,-134.97,10.88686657,71.26,100,23.33,64,1538009576,71.13498676
7,Nikolskoye,RU,59.7,30.79,25.57333374,48.2,70,11.18,75,1538006400,47.90634294
8,Chervone,UA,47.83,37.79,146.6746674,33.19,81,3.65,0,1538009576,31.5057436
9,Dikson,RU,73.51,80.55,40.833992,39.76,96,21.54,92,1538009577,39.29110572
10,Chokurdakh,RU,70.62,147.9,30.18990135,35.8,92,14.27,92,1538009577,35.45333117
11,Narsaq,GL,60.91,-46.05,1.743739247,35.6,64,4.7,75,1538005800,35.57997675
12,Fairbanks,US,64.84,-147.72,135.485672,51.08,61,10.29,90,1538006280,49.52422616
13,San Patricio,MX,19.22,-104.7,0.967774808,76.57,100,1.63,48,1538009578,76.5588871
14,Muli,MV,2.92,73.57,0,78.91,100,17.63,88,1538009578,78.91
15,Harper,LR,4.38,-7.71,9.74244976,78.19,100,11.81,92,1538009578,78.07812803
16,Pisco,PE,-13.71,-76.2,22,64.4,77,13.87,90,1538006400,64.14737532
17,Chapais,CA,49.78,-74.86,394.9442749,39.2,86,9.17,90,1538008260,34.66487859
18,Victoria,SC,-4.62,55.45,10.16719437,77,88,14.99,36,1538006400,76.88325072
19,Affery,CI,6.32,-3.95,111.722908,73.42,99,2.75,92,1538009579,72.13709255
20,Albany,AU,-35.02,117.88,45.38935852,53.17,91,6.78,92,1538009580,52.64879672
21,Sinnamary,GF,5.38,-52.96,4.192888737,82.42,95,17.29,8,1538009580,82.37185331
22,Georgetown,SH,-7.93,-14.42,1.622661471,75.58,100,18.07,48,1538009581,75.56136708
23,Lorengau,PG,-2.02,147.27,0.95097363,84.4,99,5.1,8,1538009581,84.38908003
24,Luwuk,ID,-0.95,122.79,10.82311153,79.45,88,6.67,12,1538009351,79.32571886
25,Ushuaia,AR,-54.81,-68.31,0.55449599,41,44,3.36,0,1538006400,40.99363276
26,Punta Arenas,CL,-53.16,-70.91,19.48355484,37.4,74,6.93,0,1538006400,37.17627151
27,Leningradskiy,RU,69.38,178.42,7.491461754,40.39,97,15.39,32,1538009582,40.30397599
28,Vestmannaeyjar,IS,63.44,-20.27,8.410666466,40.93,100,7.9,88,1538009582,40.83342082
29,Sao Jose Da Coroa Grande,BR,-8.9,-35.15,14.35999966,74.86,91,7.78,92,1538009582,74.69510499
30,Bonaventure,CA,48.04,-65.49,0,69.8,88,14.99,90,1538008680,69.8
31,Ribeira Grande,PT,38.52,-28.7,8.446471214,74.86,96,25.57,88,1538009583,74.76300968
32,Namibe,AO,-15.19,12.15,5.844017982,65.77,99,6.44,0,1538009583,65.70289349
33,Torbay,CA,47.66,-52.73,0,44.6,87,9.17,75,1538006400,44.6
34,Governador Valadares,BR,-18.85,-41.95,172,77.02,48,11.59,8,1538009294,75.04493432
35,Ilulissat,GL,69.22,-51.1,15.22115135,32,100,10.29,68,1538005800,31.82521643
36,Port Alfred,ZA,-33.59,26.89,19.96259117,63.16,94,13.49,0,1538009586,62.93077076
37,Port Macquarie,AU,-31.43,152.91,12.15656567,64.4,59,4.7,40,1538006400,64.26040689
38,Avarua,CK,-21.21,-159.78,19.53422928,82.4,74,8.05,75,1538006400,82.17568962
39,Salalah,OM,17.01,54.1,8.392000198,73.4,73,4.7,0,1538005800,73.30363517
40,Souillac,MU,-20.52,57.52,1.489344001,71.6,73,11.41,20,1538006400,71.58289795
41,Butaritari,KI,3.07,172.79,8.440905571,83.59,100,4.88,0,1538009589,83.49307359
42,Geraldton,AU,-28.77,114.6,0,57.2,67,10.29,0,1538008200,57.2
43,Novomalorossiyskaya,RU,45.63,39.89,38.0345726,40.75,80,5.66,0,1538009589,40.31325128
44,Bathsheba,BB,13.22,-59.52,-0.097758673,82.4,78,18.34,20,1538006400,82.40112256
45,Cockburn Town,TC,21.46,-71.14,6.05237627,82.6,100,18.07,12,1538009590,82.53050093
46,Alofi,NU,-19.06,-169.92,63.18806839,80.6,65,12.75,40,1538006400,79.8744152
47,Kavieng,PG,-2.57,150.8,12.33244419,86.29,96,10.69,0,1538009591,86.14838728
48,Qaanaaq,GL,77.48,-69.36,3.892444372,19.15,100,8.01,36,1538009591,19.10530329
49,Eydhafushi,MV,5.1,73.07,0,81.79,100,14.72,88,1538009591,81.79
50,Richards Bay,ZA,-28.77,32.06,6.493928432,65.5,88,0.74,92,1538009593,65.42543061
51,Veracruz,MX,24.02,-103.93,2026.577271,71.6,56,9.17,90,1538003700,48.3289348
52,Tura,RU,64.27,100.22,199.5959778,35.08,86,4.76,80,1538009594,32.78805136
53,Tuktoyaktuk,CA,69.44,-133.03,0,30.2,74,16.11,75,1538006400,30.2
54,San Diego De Los Banos,CU,22.65,-83.37,81.46759033,83.14,73,5.66,68,1538009595,82.20451255
55,Vaini,TO,-21.2,-175.2,20,78.8,69,8.05,40,1538006400,78.5703412
56,Hilo,US,19.71,-155.08,16.21504974,89.96,63,16.11,75,1538007120,89.77380356
57,Busselton,AU,-33.64,115.35,0,55.42,100,8.79,44,1538009596,55.42
58,Marabba,SD,12.35,32.18,401.0131531,75.4,71,3.76,0,1538009596,70.79519002
59,Kununurra,AU,-15.77,128.74,50.72711182,84.2,54,5.82,90,1538008200,83.61750362
60,Wanaka,NZ,-44.7,169.14,304.5759888,47.14,50,2.86,20,1538009597,43.6425722
61,Tautira,PF,-17.73,-149.15,-324.5338135,80.6,57,4.7,75,1538008200,84.32660231
62,Puerto Ayora,EC,-0.74,-90.35,39.42396927,75.2,69,17.22,0,1538006400,74.74729693
63,Lebu,CL,-37.62,-73.65,183.1880493,53.8,95,12.03,92,1538009598,51.69646262
64,Vanimo,PG,-2.67,141.3,11.00224018,83.14,100,7.23,0,1538009598,83.01366194
65,Gijon,ES,43.54,-5.66,12.2339325,64.4,82,3.36,0,1538008200,64.25951849
66,Tiksi,RU,71.64,128.87,33.85548782,32.47,97,11.25,88,1538009598,32.08123946
67,Ambilobe,MG,-13.19,49.05,33.75999832,70.81,68,14.05,0,1538009599,70.42233596
68,Sept-Iles,CA,50.2,-66.38,1,53.6,93,6.93,90,1538007960,53.58851706
69,Dhidhdhoo,MV,6.88,73.1,-0.614018798,80.08,100,8.79,24,1538009599,80.08705074
70,Broome,AU,-17.97,122.23,19.75914192,78.8,74,6.93,40,1538008200,78.57310696
71,Nantucket,US,41.28,-70.1,13.98624611,71.6,96,17.22,1,1538007300,71.43939678
72,Tsiroanomandidy,MG,-18.77,46.05,864.1361694,58.12,69,3.42,20,1538009600,48.19717621
73,Cerritos,MX,20.89,-100.6,2066.901367,68.02,81,5.32,12,1538009600,44.28589561
74,Bethel,US,60.79,-161.76,0,55.04,63,9.17,40,1538005980,55.04
75,Atikokan,CA,48.76,-91.62,397.4705505,45.79,83,7.23,92,1538009601,41.22586952
76,Hithadhoo,MV,-0.6,73.08,1.010560036,80.71,100,11.81,88,1538009602,80.6983958
77,Saskylakh,RU,71.97,114.09,65.09505463,23.11,85,8.68,0,1538009602,22.36251739
78,Ulladulla,AU,-35.36,150.48,22.79999924,60.8,51,5.82,0,1538006400,60.53818898
79,Hovd,MN,48.01,91.64,1391.369751,29.77,77,3.87,0,1538009373,13.79298463
80,Iskateley,RU,67.68,53.15,10,39.76,100,13.71,56,1538009603,39.6451706
81,Klaksvik,FO,62.23,-6.59,0,46.4,93,8.05,92,1538007600,46.4
82,Tasiilaq,GL,65.61,-37.64,67.22933197,35.6,69,3.36,0,1538005800,34.82800961
83,Cabo San Lucas,MX,22.89,-109.91,13.43345356,83.95,100,7,0,1538009454,83.79574446
84,Komsomolskiy,RU,67.55,63.78,220.2922211,42.91,96,12.15,68,1538009604,40.38039764
85,Praia Da Vitoria,PT,38.73,-27.07,42.2383461,73.4,94,21.32,75,1538006400,72.91497961
86,Kahului,US,20.89,-156.47,1,89.06,62,11.41,40,1538009100,89.04851706
87,Atuona,PF,-9.8,-139.03,18.34078026,79,100,9.91,0,1538009605,78.78939392
88,Hays,US,38.88,-99.33,611.8875732,68,35,8.05,1,1538006160,60.97373171
89,Kokopo,PG,-4.34,152.27,3.498666763,81.43,100,13.04,68,1538009605,81.38982502
90,Plouzane,FR,48.38,-4.62,62.11911011,57.2,76,5.82,0,1538008200,56.48668999
91,Aguimes,ES,27.91,-15.45,297.552948,73.4,83,21.92,20,1538008200,69.98321735
92,Kattivakkam,IN,13.22,80.32,6.020444393,80.6,88,3.36,40,1538008200,80.5308676
93,Sarlat-La-Caneda,FR,44.89,1.22,162.8448334,51.8,76,4.7,0,1538008200,49.93006255
94,Tuatapere,NZ,-46.13,167.69,25,45.34,100,7.56,92,1538009607,45.0529265
95,Pevek,RU,69.7,170.27,1.159379721,44.35,92,13.27,76,1538009607,44.33668691
96,Castro,CL,-42.48,-73.76,7.788067341,46.06,82,2.08,92,1538009607,45.97057009
97,Rorvik,NO,64.86,11.24,0,46.42,100,16.28,88,1538009606,46.42
98,Kuldur,RU,49.22,131.63,369,48.94,60,3.2,0,1538009607,44.70279514
99,Khatanga,RU,71.98,102.47,37.58133316,27.79,86,18.3,44,1538009608,27.35845581
100,Luderitz,NA,-26.65,15.16,35.71016693,53.17,84,13.49,0,1538009608,52.7599423
101,Nyimba,ZM,-14.56,30.81,708.1689453,76.66,41,6.44,100,1538009608,68.52813849
102,Provideniya,RU,64.42,-173.23,12.18267536,50,76,13.42,75,1538006400,49.86010707
103,Hastings,US,40.59,-98.39,585.2910156,68,35,5.82,1,1538007300,61.27913839
104,Saint George,BM,32.38,-64.68,16.84353828,77,69,11.41,75,1538006100,76.80658666
105,Thompson,CA,55.74,-97.86,205.965332,41,60,5.82,75,1538006400,38.63491245
106,Boden,SE,65.83,21.69,11.69079876,42.8,81,27.51,92,1538007600,42.66575526
107,New Norfolk,AU,-42.78,147.06,26.50635147,59,44,13.87,0,1538008200,58.69562916
108,Sitka,US,37.17,-99.65,576.9644775,62.17,48,7.9,0,1538009610,55.54475152
109,Carnarvon,AU,-24.87,113.63,0,66.67,89,20.09,0,1538009611,66.67
110,Konevo,RU,56.45,43.2,115.1370697,39.2,80,13.42,0,1538006400,37.87788794
111,Mar Del Plata,AR,-46.43,-67.52,29.30946541,43,77,12.71,64,1538009611,42.66344117
112,Katsuura,JP,33.93,134.5,38.9287262,64.4,100,4.7,75,1538006400,63.95298377
113,Cape Town,ZA,-33.93,18.42,26.87131691,57.2,87,25.28,75,1538006400,56.89143828
114,Floro,NO,61.6,5.03,2.49333334,50,76,11.41,92,1538007600,49.9713692
115,Atar,MR,20.52,-13.05,224,80.62,27,6.44,0,1538009613,78.04782144
116,Nanma,CN,35.7,113.14,1009.928772,48.85,87,2.42,8,1538009613,37.25304851
117,Vallenar,CL,-28.58,-70.76,385.8197327,56.59,82,1.41,56,1538009613,52.15965516
118,Bubaque,GW,11.28,-15.83,18.47377777,77.83,100,8.68,76,1538009613,77.61786672
119,Novopokrovka,RU,45.85,134.51,106.288002,52.54,70,3.2,36,1538009614,51.31950125
120,Jamestown,SH,-15.94,-5.72,399,66.22,100,16.62,92,1538009369,61.63830694
121,Rafai,CF,4.95,23.92,563.8951416,70.99,91,2.75,0,1538009614,64.51482592
122,Fiumicino,IT,41.77,12.23,2.407628059,59,54,8.05,0,1538007600,58.97235335
123,Nobres,BR,-14.72,-56.34,211.6977844,77.74,79,1.86,12,1538009615,75.30908704
124,Iralaya,HN,15,-83.23,4.15762949,81.52,93,4.76,80,1538009615,81.47225819
125,East London,ZA,-33.02,27.91,34.73191833,67.57,100,19.86,0,1538009615,67.17117547
126,Barrow,US,39.51,-90.4,199.1559296,62.06,63,3.36,1,1538008500,59.77310441
127,Half Moon Bay,US,37.46,-122.43,24.76271248,95,93,6.93,90,1538008500,94.71565126
128,Axim,GH,4.87,-2.24,18.3234539,78.19,99,9.24,92,1538009616,77.97959288
129,Kendari,ID,-3.99,122.52,1.013816833,79.45,74,2.42,0,1538009616,79.4383584
130,Matagami,CA,49.76,-77.63,260.9902344,33.8,100,3.36,40,1538008620,30.8030648
131,Alice Springs,AU,-23.7,133.88,581.9558716,78.8,6,8.05,0,1538008200,72.11743564
132,Nueva Italia,PY,-25.61,-57.47,120.7777786,71.89,93,7.78,0,1538009617,70.50311601
133,Hermanus,ZA,-34.42,19.24,23.73564339,54.7,78,8.79,32,1538009617,54.42744503
134,Gobabis,NA,-22.45,18.97,1440.064941,59,26,1.3,88,1538006400,42.46382068
135,Severo-Kurilsk,RU,50.68,156.12,11.84739113,49.48,92,14.72,12,1538009618,49.34395712
136,Mastic Beach,US,40.77,-72.85,5.691422462,73.94,100,12.75,90,1538007300,73.87464574
137,Stornoway,GB,58.21,-6.39,3.102343082,48.2,100,3.36,92,1538007600,48.16437598
138,Hobart,AU,-42.88,147.33,9.245833397,59,44,13.87,0,1538008200,58.89383065
139,Kasongo-Lunda,CD,-6.48,16.82,547.7662354,69.1,94,2.19,20,1538009619,62.81003319
140,Ancud,CL,-41.87,-73.83,4.688848495,48.67,71,4.21,92,1538009619,48.61615823
141,Bud,NO,62.91,6.91,12.40785027,48.2,81,16.11,92,1538007600,48.0575214
142,Chuy,UY,-33.69,-53.46,22.76799965,60.28,96,9.35,88,1538009379,60.01855643
143,Tottori,JP,35.5,134.23,7.326224804,71.6,73,23.04,75,1538006400,71.5158734
144,Beira,MZ,-19.84,34.84,8.747237206,73.4,100,13.27,0,1538006400,73.299556
145,Constitucion,MX,23.99,-104.67,1884.294189,71.6,56,9.17,90,1538003700,49.96276288
146,Mehamn,NO,71.03,27.85,40.32444382,30.94,91,3.98,8,1538009621,30.47695683
147,Ponta Do Sol,CV,17.2,-25.09,31.72919655,79.63,97,13.71,92,1538009621,79.26565554
148,Cap Malheureux,MU,-19.98,57.61,0,71.6,73,11.41,20,1538006400,71.6
149,Yellowknife,CA,62.45,-114.38,199.0788269,32,96,17.22,75,1538006400,29.71398978
150,Sumbe,AO,-11.2,13.84,9.895999908,69.37,100,5.99,24,1538009622,69.25636483
151,Mount Isa,AU,-20.73,139.49,347.8130798,87.8,16,14.99,0,1538008200,83.80608327
152,Manica,MZ,-18.94,32.88,727.0640259,63.52,83,2.64,0,1538009622,55.17116741
153,Carlsbad,US,33.16,-117.35,14.74075031,78.08,84,6.93,90,1538006160,77.91073285
154,Hami,CN,42.84,93.51,769.6682129,42.01,62,9.24,0,1538009623,33.17194609
155,Haines Junction,CA,60.75,-137.51,594,46.51,46,2.42,76,1538009623,39.68913364
156,Sheridan,US,39.65,-105.03,1616.852051,73.4,5,1.86,1,1538008500,54.83378491
157,Camopi,GF,3.17,-52.33,57.10646057,79.27,69,5.1,0,1538009624,78.61424994
158,Necochea,AR,-38.55,-58.74,18.83950233,47.41,83,11.7,88,1538009624,47.19366713
159,West Wendover,US,40.74,-114.07,1357.114502,71.06,4,3.09,1,1538006160,55.4763356
160,Matara,LK,5.95,80.54,9.315555573,77.74,100,5.1,88,1538009625,77.63303003
161,Tianpeng,CN,28.88,112.34,34.50704193,64.87,100,7.23,92,1538009625,64.47375771
162,Port Elizabeth,ZA,-33.92,25.57,34.40129089,55.4,87,3.36,0,1538006400,55.00497204
163,Sechura,PE,-5.56,-80.82,13.66311073,70.54,83,12.71,0,1538009626,70.38310732
164,Brae,GB,60.4,-1.35,14.02880001,50,76,10.29,92,1538007600,49.83890813
165,Lima,PE,-12.06,-77.04,138.9790649,60.64,72,2.19,0,1538009511,59.04411174
166,Dunmore Town,BS,25.5,-76.65,0,80.26,100,14.5,76,1538009561,80.26
167,Padang,ID,-0.92,100.36,8.128970146,81.25,100,3.09,8,1538009627,81.15665552
168,Ampanihy,MG,-24.69,44.75,234.6481171,62.8,67,2.64,0,1538009627,60.10554975
169,Armeria,MX,18.93,-103.97,30.46919632,71.62,100,1.3,80,1538009628,71.27012405
170,Jumla,NP,29.28,82.18,2396.733643,35.17,88,2.75,0,1538009628,7.648451386
171,Kavaratti,IN,10.57,72.64,-9.331127167,82.96,100,11.03,88,1538009628,83.06714877
172,Shiyan,CN,32.65,110.78,243.9745483,56.86,97,2.75,92,1538009629,54.0584549
173,Cap-Aux-Meules,CA,47.38,-61.86,10.88622189,62.6,88,24.16,75,1538006400,62.47499417
174,Hengshan,CN,22.21,110.15,89.5573349,76.93,88,4.21,12,1538009629,75.9016185
175,Douentza,ML,15.01,-2.95,299.5962219,73.33,73,3.09,0,1538009629,69.88975456
176,Lat Yao,TH,15.75,99.79,60.71164322,75.22,90,3.09,8,1538009630,74.52285184
177,Maragheh,IR,37.39,46.24,1452.015137,64.4,55,19.46,0,1538006400,47.72659731
178,Afyonkarahisar,TR,38.76,30.53,1052.307617,43.99,96,11.48,80,1538009630,31.90641477
179,Suwalki,PL,54.11,22.93,177.6938324,53.44,85,27.92,100,1538009630,51.39955238
180,Tebingtinggi,ID,3.33,99.16,23,77,88,3.36,40,1538006400,76.73589238
181,Faanui,PF,-16.48,-151.75,35.43472672,78.37,100,12.82,36,1538009631,77.96310516
182,Kloulklubed,PW,7.04,134.26,23.70294762,84.2,74,11.41,75,1538005800,83.92782047
183,Sattahip,TH,12.67,100.9,3.262727976,80.6,83,2.24,20,1538008200,80.56253429
184,Cidreira,BR,-30.17,-50.22,18.51212883,68.02,97,4.43,88,1538009632,67.80742634
185,Bela Palanka,RS,43.22,22.31,288.4043884,33.8,86,2.24,0,1538008200,30.48826971
186,Hofn,IS,64.25,-15.21,0,43.36,100,5.44,20,1538009632,43.36
187,Lompoc,US,34.64,-120.46,30.91554642,77,87,6.93,90,1538008500,76.64499864
188,Aklavik,CA,68.22,-135.01,5.6412673,32,96,5.82,75,1538006400,31.93522167
189,Lagoa,PT,37.14,-8.45,49.86245346,77,73,17.22,0,1538008200,76.42743244
190,Altamira,BR,-3.2,-52.21,98.78662109,84.31,69,3.98,12,1538009634,83.17563916
191,Bambous Virieux,MU,-20.34,57.76,9.323868752,71.6,73,11.41,20,1538006400,71.49293457
192,Fairview,CA,56.07,-118.38,660,46.4,81,4.7,90,1538006400,38.8212596
193,Bilibino,RU,68.06,166.44,289.3186646,38.14,68,4.65,76,1538009634,34.81777113
194,Hualmay,PE,-11.1,-77.61,42.24533463,61.99,85,4.76,0,1538009635,61.50489936
195,San Ramon,BO,-13.27,-64.62,137.0491791,86.02,53,4.54,8,1538009635,84.4462725
196,Norman Wells,CA,65.28,-126.83,61,33.8,74,6.93,90,1538006400,33.09954066
197,Rio Piracicaba,BR,-19.93,-43.17,619.1279907,69.19,57,6.55,0,1538009607,62.08059043
198,Roald,NO,62.58,6.12,3.979628086,48.2,70,13.87,92,1538007600,48.15430217
199,Camacha,PT,33.08,-16.33,242.2469788,71.6,82,2.24,20,1538008200,68.81829248
200,Kruisfontein,ZA,-34,24.73,240.0604401,54.61,92,4.21,12,1538009638,51.85340037
201,Kodiak,US,39.95,-94.76,292.7092896,64.04,38,2.75,1,1538005980,60.67883679
202,Ryotsu,JP,38.08,138.43,0,60.8,100,10.29,75,1538006400,60.8
203,Odessa,US,31.85,-102.37,886.729187,57.2,90,5.82,90,1538008080,47.01774195
204,Buala,SB,-8.15,159.59,146.3001709,79.72,100,13.94,68,1538009641,78.04004392
205,Korla,CN,41.76,86.15,945.5863037,34.63,81,3.98,0,1538009642,23.77188921
206,Mortka,RU,59.33,66.02,82,60.1,65,5.99,92,1538009642,59.15839892
207,Huitziltepec,MX,17.76,-99.48,1305.407471,79.27,57,2.42,0,1538009643,64.28008434
208,Macas,EC,-2.3,-78.12,1034.339355,67.39,85,3.42,0,1538009643,55.51274324
209,San Cristobal,EC,-1.02,-79.44,97.54531097,63.07,99,2.19,92,1538009646,61.94989305
210,Manokwari,ID,-0.87,134.08,14.94133377,78.73,100,1.97,64,1538009649,78.55842956
211,Kapaa,US,22.08,-159.32,5.705945969,84.02,79,14.99,75,1538006160,83.95447896
212,Wajima,JP,37.4,136.9,2.242344141,64.4,88,2.24,75,1538006400,64.3742513
213,Durusu,TR,37.53,40.83,900.7520752,73.4,42,4.7,0,1538007600,63.05671797
214,Kidal,ML,18.44,1.41,458.9093628,73.33,28,2.75,0,1538009652,68.06037132
215,Husavik,IS,66.04,-17.34,26.36935616,37.4,93,1.12,90,1538006400,37.09720227
216,Bluff,NZ,-46.6,168.33,40,50.02,98,15.5,64,1538009655,49.5606824
217,Te Anau,NZ,-45.41,167.72,214,45.79,82,3.65,68,1538009655,43.33265084
218,Klyuchi,RU,52.25,79.17,143.717392,46.69,83,2.75,0,1538009655,45.03970181
219,Saint-Pierre,PM,46.77,-56.17,9.231111526,55.4,87,23.04,0,1538006400,55.2939997
220,Damghan,IR,36.17,54.34,1160.415527,52.54,78,2.64,0,1538009656,39.21501812
221,Greeneville,US,36.16,-82.83,449.5164185,68,100,2.64,75,1538007720,62.83822994
222,Champerico,GT,14.3,-91.92,7.519383907,82.4,78,4.7,40,1538006400,82.31365537
223,Tromso,NO,69.65,18.96,2.832888842,39.2,80,2.24,75,1538005800,39.16747011
224,Sarai Sidhu,PK,30.59,71.97,139.0835571,80.6,74,3.2,44,1538006400,79.00291186
225,Nanortalik,GL,60.14,-45.24,1,37.87,95,6.67,92,1538009657,37.85851706
226,Altay,CN,47.83,88.13,840.3573608,18.97,67,1.74,0,1538009657,9.320226847
227,Costinesti,RO,43.95,28.63,11.54044437,39.2,64,8.05,0,1538008200,39.06748177
228,Hambantota,LK,6.12,81.12,0.504149318,78.01,100,9.91,64,1538009658,78.00421088
229,Tarakan,ID,3.3,117.63,60.57312012,76.39,100,3.76,64,1538009658,75.6944425
230,Ferkessedougou,CI,9.6,-5.2,317.9155579,68.38,99,9.69,92,1538009658,64.72939472
231,Aswan,EG,24.09,32.9,100.9939346,80.08,43,7.11,0,1538009659,78.92029271
232,Parana,BR,-7.52,-72.89,184.7693329,78.8,74,4.7,75,1538006400,76.67830484
233,Ishigaki,JP,24.34,124.16,11.83234406,84.2,83,17.22,75,1538006400,84.0641299
234,Dingle,IE,52.14,-10.27,8.13599968,54.79,99,11.59,0,1538009659,54.6965748
235,Laizhou,CN,37.18,119.93,40.19487762,63.88,100,4.43,0,1538009660,63.41844463
236,Talnakh,RU,69.49,88.39,78.85778046,41.92,95,20.54,100,1538009660,41.01448084
237,Sola,VU,-13.88,167.55,67.48950195,86,74,5.82,75,1538006400,85.2250221
238,Ekibastuz,KZ,51.72,75.32,201.7875214,44.26,80,2.98,88,1538009661,41.942886
239,Aljezur,PT,37.31,-8.8,11.48006535,74.14,82,15.17,8,1538009661,74.0081751
240,Omsukchan,RU,62.53,155.8,529.0978394,33.01,63,3.65,64,1538009661,26.93440126
241,Hasaki,JP,35.73,140.83,7.761064053,60.8,100,14.99,75,1538006400,60.71088017
242,Goundam,ML,16.42,-3.66,271.2349548,79.36,57,2.75,0,1538009662,76.24542529
243,Una,BR,-15.29,-39.07,28.39961052,75.67,100,8.12,92,1538009662,75.34388898
244,Cherskiy,RU,68.75,161.3,1,35.26,77,3.31,56,1538009662,35.24851706
245,Porangatu,BR,-13.44,-49.14,399.0559082,81.34,51,5.44,8,1538009663,76.75766495
246,Mabaruma,GY,8.2,-59.78,16.70473099,79.99,95,5.21,12,1538009663,79.79818058
247,Quatre Cocos,MU,-20.21,57.76,42.70302963,71.6,73,11.41,20,1538006400,71.10964367
248,Namtsy,RU,62.72,129.66,78.63395691,44.35,78,4.43,20,1538009664,43.44705099
249,Tocopilla,CL,-22.09,-70.2,9.096888542,58.03,100,3.87,8,1538009664,57.92554097
250,Upernavik,GL,72.79,-56.15,0,34.54,100,23.89,80,1538009664,34.54
251,Wanning,CN,18.8,110.4,9.346666336,83.23,98,6.22,76,1538009665,83.12267279
252,Los Llanos De Aridane,ES,28.66,-17.92,329.7692871,71.6,88,6.93,0,1538008200,67.81327906
253,Contamana,PE,-7.35,-75.01,133.9831085,81.7,77,2.42,0,1538009665,80.16148
254,Craigieburn,AU,-37.6,144.94,194.5467529,75.2,39,17.22,0,1538008200,72.96603131
255,Kushima,JP,31.5,131.29,96.27662659,69.8,88,18.34,75,1538006400,68.69446127
256,Surt,LY,31.21,16.59,9.993000031,77.02,94,14.05,92,1538009666,76.90525098
257,Coihaique,CL,-45.58,-72.07,305.9087524,50,98,13.87,40,1538006400,46.48726815
258,Lavrentiya,RU,65.58,-170.99,2,43.81,93,11.03,44,1538009667,43.78703412
259,Charters Towers,AU,-20.07,146.27,300.9297485,72.52,80,6.89,0,1538009668,69.06444175
260,Inhambane,MZ,-23.87,35.38,0.859555542,74.5,99,11.03,0,1538009668,74.49012978
261,Wajir,KE,1.75,40.07,258,75.04,75,12.71,8,1538009668,72.07740148
262,Finschhafen,PG,-6.6,147.85,19.84912682,73.51,96,3.09,80,1538009668,73.28207367
263,Morant Bay,JM,17.88,-76.41,9.87042141,86,70,14.99,20,1538006400,85.88665854
264,Benguela,AO,-12.58,13.4,8.851049423,69.46,100,5.66,44,1538009669,69.35836393
265,Hamilton,BM,32.3,-64.78,12.58555698,77,69,11.41,75,1538006100,76.8554808
266,Mucurici,BR,-18.09,-40.52,241.8667603,75.76,60,12.71,0,1538009670,72.9826585
267,Mahebourg,MU,-20.41,57.7,16.9208889,71.6,73,11.41,20,1538006400,71.40569845
268,Nurota,UZ,40.56,65.69,493.2229919,55.4,37,2.24,0,1538006400,49.73634998
269,Coquimbo,CL,-29.95,-71.34,65.9830246,55.4,87,8.05,75,1538006400,54.64232089
270,Najran,SA,17.54,44.22,1277.914673,73.4,38,2.75,0,1538006400,58.72578249
271,Seddon,NZ,-41.67,174.07,82,51.01,93,3.53,80,1538009671,50.06839892
272,Tsevie,TG,6.43,1.21,99.61955261,78.8,88,9.17,40,1538006400,77.65607465
273,Pio Xii,BR,-3.89,-45.17,40.58044434,83.41,64,9.46,48,1538009672,82.94401719
274,Manavalakurichi,IN,8.13,77.3,0,78.8,88,4.7,40,1538008200,78.8
275,Lahij,YE,13.06,44.88,136.7626648,65.32,99,2.75,0,1538009672,63.74956253
276,Navirai,BR,-23.07,-54.19,351.7037964,76.57,75,2.98,44,1538009673,72.53140641
277,Nishihara,JP,35.74,139.53,62.86198044,62.6,87,11.41,90,1538006820,61.87815965
278,Muros,ES,42.77,-9.06,103.7368393,60.8,82,3.36,0,1538008200,59.6087961
279,Rawson,AR,-43.3,-65.11,9.689777374,43.54,56,9.91,68,1538009673,43.42873287
280,Yenagoa,NG,4.92,6.26,3.156525135,74.14,99,2.42,80,1538009674,74.10375381
281,Dunedin,NZ,-45.87,170.5,61.02222061,49.39,71,10.25,32,1538009489,48.6892855
282,Deputatskiy,RU,69.3,139.9,555.31073,25.36,86,3.98,80,1538009674,18.98340021
283,Misratah,LY,32.38,15.09,11.70893955,72.61,100,16.4,92,1538009675,72.47554695
284,Puerto Del Rosario,ES,28.5,-13.86,22.77594185,73.4,73,2.24,0,1538008200,73.13846523
285,Marsa Matruh,EG,31.35,27.25,14.68118477,73.4,73,2.75,40,1538006400,73.23141684
286,Kirkland Lake,CA,48.15,-80.03,325,48.2,76,4.7,40,1538006400,44.4680445
287,Batagay-Alyta,RU,67.8,130.41,503.2396851,21.85,86,6.67,92,1538009676,16.07132889
288,Yerbogachen,RU,61.28,108.01,284.47995,44.44,98,3.65,92,1538009676,41.1733338
289,Novyy Urengoy,RU,66.08,76.63,45.98427963,54.52,75,16.06,44,1538009677,53.99196528
290,Teya,RU,60.37,92.63,210.8151093,31.12,88,2.3,20,1538009677,28.69922275
291,Okhotsk,RU,59.36,143.24,7.531555653,45.16,94,3.42,36,1538009678,45.0735156
292,Borzna,UA,51.25,32.43,128.8643036,43.36,67,15.61,80,1538009447,41.88025893
293,Concarneau,FR,47.88,-3.92,27.82577705,57.2,76,5.82,0,1538008200,56.88047827
294,Kautokeino,NO,69.01,23.04,308.6204529,34.99,92,9.8,92,1538009604,31.44612986
295,Sanmenxia,CN,34.77,111.19,359.4593811,54.07,99,3.31,88,1538009679,49.94234949
296,Sao Filipe,CV,14.9,-24.5,60.35427094,78.82,96,11.25,80,1538009679,78.12695553
297,Vuktyl,RU,63.86,57.31,99.00533295,41.47,91,7.45,32,1538009486,40.3331277
298,Grenada,US,33.77,-89.81,69.23707581,73.04,96,6.44,90,1538007000,72.24495481
299,Sao Joao Da Barra,BR,-21.64,-41.05,8,75.22,96,30.04,0,1538009680,75.12813648
300,Hohhot,CN,40.81,111.65,1050,53.6,93,2.24,40,1538006400,41.542913
301,Atambua,ID,-9.11,124.89,340.4970398,78.91,96,4.76,0,1538009680,75.00009292
302,Havoysund,NO,71,24.66,18.35591125,41,86,27.51,75,1538004000,40.78922017
303,Mareeba,AU,-16.99,145.42,401.0707703,80.6,57,14.99,40,1538008200,75.99452841
304,Ambovombe,MG,-25.18,46.09,143.5724487,68.02,94,2.08,0,1538009681,66.37136619
305,Ust-Tsilma,RU,65.44,52.15,20.17954826,38.32,90,8.57,92,1538009682,38.08827946
306,Pontal Do Parana,BR,-25.67,-48.51,12.97462082,62.6,100,3.36,75,1538006400,62.45101321
307,Fukue,JP,35.03,136.69,2.63713932,66.2,88,5.82,75,1538006400,66.16971789
308,Chesma,RU,53.81,60.65,317.5075684,61.09,45,12.71,92,1538009683,57.44407964
309,Caravelas,BR,-17.73,-39.27,0,76.84,100,15.28,76,1538009683,76.84
310,Tagusao,PH,9.19,117.81,10.24959278,77.56,100,5.1,64,1538009683,77.44230454
311,Beringovskiy,RU,63.05,179.32,29.98829842,46.33,95,25.9,92,1538009684,45.98564617
312,Rio Grande,BR,-32.03,-52.1,6.115926743,66.67,98,6.67,76,1538009637,66.59977118
313,Katima Mulilo,NA,-17.5,24.28,948.5344238,67.39,43,6.55,0,1538009684,56.49803612
314,Ambon,ID,-3.7,128.18,9.317364693,86,66,3.36,40,1538008200,85.89300926
315,Iqaluit,CA,63.75,-68.52,28.18400002,33.8,69,16.11,20,1538006400,33.47636482
316,Stephenville,CA,48.55,-58.59,15.12145805,59,82,23.04,75,1538006400,58.8263612
317,Bonavista,CA,48.65,-53.11,9.034667015,53.08,87,22.55,56,1538009685,52.97625546
318,Hay River,CA,60.82,-115.79,160,37.4,59,8.05,75,1538007660,35.5627296
319,Port Hawkesbury,CA,45.62,-61.36,25.69264412,64.4,93,11.41,90,1538008920,64.10497291
320,Flinders,AU,-34.58,150.85,18.02219582,60.8,51,5.82,0,1538006400,60.59305221
321,Port Hueneme,US,34.15,-119.2,2.3694098,89.96,70,11.41,75,1538006220,89.93279221
322,Xinyu,CN,27.8,114.93,61.46023178,68.83,77,10.36,48,1538009687,68.12425585
323,Gunjur,GM,13.18,-16.76,19.39775467,77,94,4.7,75,1538006400,76.77725675
324,Khandyga,RU,62.65,135.58,129.3431091,42.01,81,4.76,64,1538009687,40.52476084
325,Kaitangata,NZ,-46.28,169.85,15,49.66,81,12.82,76,1538009688,49.4877559
326,Reyes,BO,-14.3,-67.34,186.1473846,80.62,77,1.97,8,1538009688,78.48248075
327,Sidhi,IN,24.41,81.88,277.0048828,71.62,85,3.2,0,1538009688,68.43916955
328,Formosa,AR,-26.19,-58.17,65.20266724,66.2,100,8.05,90,1538006400,65.45128168
329,Batagay,RU,67.65,134.64,183.9406891,26.17,86,4.21,48,1538009689,24.0578201
330,Farafangana,MG,-22.82,47.83,10.49642372,73.06,99,13.6,88,1538009689,72.9394702
331,Nouadhibou,MR,20.93,-17.03,0.521777749,82.4,51,4.7,0,1538006400,82.39400846
332,Usak,TR,38.67,29.41,906.7306519,51.37,81,10.58,0,1538009690,40.95806633
333,Merauke,ID,-8.49,140.4,5.458666801,81.79,73,18.52,8,1538009690,81.72731846
334,Evanston,US,42.04,-87.69,186.8976593,62.96,62,6.93,75,1538009100,60.81386539
335,Barao De Melgaco,BR,-16.19,-55.97,136.3090515,80.6,61,3.36,0,1538006400,79.03477134
336,Bonthe,SL,7.53,-12.5,0.762074053,73.69,100,3.76,92,1538009691,73.68124915
337,Jalu,LY,29.03,21.55,40.45962143,76.12,60,10.47,0,1538009691,75.65540459
338,Touros,BR,-5.2,-35.46,8.350008965,77.02,86,16.84,64,1538009691,76.92411735
339,Guerrero Negro,MX,27.97,-114.04,3.264889002,79.81,52,11.7,0,1538009691,79.77250948
340,Nemuro,JP,43.32,145.57,3.974807978,57.2,82,4.7,75,1538006400,57.15435752
341,Shimoda,JP,34.7,138.93,80.11146545,66.2,88,26.4,75,1538006400,65.28008485
342,Henties Bay,NA,-22.12,14.28,23.44295502,52,100,3.42,8,1538009692,51.73080595
343,Atasu,KZ,48.68,71.64,486.1211853,45.07,90,9.01,0,1538009397,39.4878996
344,Fredericksburg,US,38.3,-77.46,15.97046661,77,100,4.7,75,1538007960,76.81661209
345,Ngaoundere,CM,7.32,13.58,1130.28125,63.07,96,2.53,56,1538009693,50.09104822
346,Cowra,AU,-33.84,148.69,299.4861145,54.52,100,6.78,0,1538009693,51.08101892
347,Yining,CN,29.04,114.56,184.3626404,61.27,96,2.86,64,1538009693,59.15297486
348,Guhagar,IN,17.48,73.19,19.02137566,74.41,100,8.23,88,1538009694,74.19157868
349,Mayo,CA,63.59,-135.9,518,53.6,40,10.29,75,1538006400,47.65183708
350,Murray Bridge,AU,-35.12,139.28,2.573266983,57.04,91,10.92,80,1538009694,57.01045133
351,Sambava,MG,-14.27,50.17,11.73680687,73.51,100,14.94,92,1538009695,73.37522695
352,Preobrazheniye,RU,42.9,133.91,61.42487717,54.61,67,1.86,64,1538009695,53.90466182
353,Les Cayes,HT,18.19,-73.75,4.826864243,83.77,97,11.03,44,1538009695,83.71457341
354,Puerto Madero,MX,14.72,-92.42,9.656904221,73.15,99,2.42,64,1538009695,73.03911035
355,Babushkin,RU,51.72,105.86,460.2906799,37.24,100,11.14,88,1538009696,31.95450974
356,Winslow,US,35.02,-110.7,1480.665527,86,15,10.29,1,1538006160,68.99760659
357,Aleksandrov Gay,RU,50.14,48.57,22.87360954,39.22,87,5.55,0,1538009696,38.95734371
358,Bredasdorp,ZA,-34.53,20.04,80.4845047,62.6,59,4.7,68,1538006400,61.67580126
359,Tabou,CI,4.42,-7.36,35.06572723,78.64,100,13.04,88,1538009697,78.23734236
360,Huangmei,CN,30.1,115.95,30.67117119,67.57,85,10.69,64,1538009697,67.21780478
361,Bokovskaya,RU,49.23,41.83,95.24848938,33.64,78,5.44,0,1538009697,32.54626731
362,Arona,ES,28.1,-16.68,626.0442505,75.2,83,14.99,20,1538008200,68.01117143
363,Medicine Hat,CA,50.04,-110.68,667.8720093,62.6,42,14.99,90,1538006400,54.93086579
364,Znamenskoye,RU,57.13,73.82,66,48.04,82,8.01,0,1538009698,47.28212596
365,Margate,ZA,-30.86,30.37,41.07110977,66.94,97,13.6,56,1538009698,66.46838291
366,Milos,GR,36.75,24.43,87.88491821,64.4,59,27.51,8,1538007600,63.39082276
367,Monrovia,LR,6.33,-10.8,3.521706581,77,94,3.36,75,1538008200,76.95956045
368,Taman,RU,45.22,36.72,0.977287114,41,93,6.71,64,1538006400,40.98877787
369,Bongouanou,CI,6.65,-4.2,205.141098,73.42,99,2.75,92,1538009700,71.06437708
370,Alenquer,BR,-1.95,-54.74,33.12911224,84.2,79,4.7,0,1538006400,83.81958039
371,Huilong,CN,31.15,106.5,349.4391174,61.36,98,5.44,100,1538009701,57.34741158
372,Makakilo City,US,21.35,-158.09,168.8404541,86,100,6.93,75,1538008500,84.0612152
373,Villepinte,FR,48.96,2.53,57.64428329,50,75,2.24,0,1538008200,49.33807415
374,Nome,US,30.04,-94.42,12.45242214,78.98,88,5.99,40,1538007300,78.83700958
375,Terra Roxa,BR,-20.79,-48.33,506.1832886,84.2,39,9.17,0,1538006400,78.38752767
376,Jishou,CN,28.26,109.7,191.8967438,60.37,100,5.66,92,1538009702,58.16646121
377,Ozernovskiy,RU,51.5,156.52,3,48.04,89,15.39,76,1538009703,48.00555118
378,Ixtapa,MX,20.71,-105.21,31.81302071,87.8,79,9.17,75,1538005500,87.43469299
379,Pangai,TO,-19.8,-174.35,3.972088814,80.6,69,10.29,20,1538006400,80.55438874
380,Ubinskoye,RU,55.31,79.68,137.3742981,47.68,88,6.67,8,1538009452,46.10253918
381,Westport,IE,53.8,-9.52,17.05507088,51.8,93,11.41,20,1538006400,51.60415764
382,Carman,CA,49.51,-98,260,55.4,100,9.17,24,1538007300,52.4144356
383,Chimbote,PE,-9.08,-78.59,2.322596312,63.7,85,7,0,1538009704,63.67332977
384,Tame,CO,6.46,-71.72,314.5675659,60.91,94,1.19,0,1538009704,57.29783951
385,Arivonimamo,MG,-19.01,47.18,1402.374268,57.2,93,4.7,20,1538006400,41.09662043
386,Kunashak,RU,55.7,61.55,191.67836,53.6,76,4.47,40,1538006400,51.39896889
387,Takoradi,GH,4.89,-1.75,14.53872585,76.57,97,5.77,80,1538009705,76.40305268
388,Clyde River,CA,70.47,-68.59,0.30120784,24.8,79,4.7,90,1538006400,24.79654125
389,Araouane,ML,18.9,-3.53,271.1693115,79.81,32,1.19,0,1538009706,76.69617907
390,Tambacounda,SN,13.77,-13.67,31.65764236,78.8,88,4.7,0,1538006400,78.43647719
391,Havelock,US,34.88,-76.9,7.034690857,80.96,93,6.93,1,1538006220,80.87922107
392,Udachnyy,RU,66.42,112.4,298.8964844,33.55,89,3.98,92,1538009698,30.1177896
393,Bhunya,SZ,-26.54,31.01,951.8804932,57.94,92,2.3,20,1538009707,47.00961341
394,Ouesso,CG,1.61,16.05,348.4933472,74.05,95,2.42,76,1538009707,70.0482718
395,Namatanai,PG,-3.66,152.44,0,84.85,94,13.71,12,1538009707,84.85
396,Icod De Los Vinos,ES,28.37,-16.71,287.349823,75.2,37,12.75,0,1538008200,71.90037922
397,Saint-Joseph,RE,-21.37,55.62,95.70095062,69.8,59,2.24,0,1538006400,68.70107173
398,Kindu,CD,-2.95,25.92,465.7919922,76.84,71,2.64,56,1538009708,71.4913385
399,Waingapu,ID,-9.65,120.26,13.72355556,79.63,72,5.66,0,1538009708,79.47241323
400,Galdar,ES,28.15,-15.65,111.3548737,73.4,83,21.92,20,1538008200,72.12131867
401,Kuching,MY,1.56,110.34,0.993877351,80.6,83,1.12,75,1538008200,80.58858737
402,Honiara,SB,-9.43,159.96,0.27474016,87.8,66,3.31,75,1538006400,87.79684518
403,Viransehir,TR,37.24,39.76,580.8872681,59.65,61,4.09,0,1538009710,52.97970635
404,Labuhan,ID,-2.54,115.51,44.66501236,78.55,72,2.98,0,1538009710,78.03711434
405,Gbadolite,CD,4.28,21,406.3590393,72.7,93,1.74,32,1538009711,68.03380353
406,Jam Sahib,PK,26.3,68.63,27.42124557,70,89,2.75,0,1538009711,69.68512348
407,Port Hardy,CA,50.7,-127.42,0,62.6,55,13.87,40,1538006400,62.6
408,Ibotirama,BR,-12.18,-43.22,428.6871033,83.5,35,11.25,44,1538009711,78.57741171
409,Samarai,PG,-10.62,150.67,0,78.1,99,15.95,64,1538009712,78.1
410,Lucapa,AO,-8.42,20.74,945.2844238,67.84,87,2.75,44,1538009712,56.98535568
411,Lindas,NO,60.74,5.16,60.32999039,46.33,100,7.67,92,1538009712,45.63723434
412,Epe,NG,6.59,3.98,19.75661659,76.66,97,4.65,92,1538009712,76.43313596
413,Gamboma,CG,-1.87,15.88,395.184845,73.42,87,7.11,20,1538009713,68.88211614
414,Booue,GA,-0.09,11.94,216.6824036,73.69,97,2.42,92,1538009713,71.20184896
415,Opuwo,NA,-18.06,13.84,1152.086792,55.69,55,4.32,0,1538009713,42.46065649
416,Port Hedland,AU,-20.31,118.58,10,86,28,5.82,0,1538008200,85.8851706
417,Ahwa,IN,20.76,73.69,479.6817627,67.39,100,2.64,0,1538009714,61.8818431
418,Bongor,TD,10.28,15.37,333.2121887,76.21,81,2.75,8,1538009714,72.38374443
419,Madera,MX,29.2,-108.14,2101.620361,58.66,100,0.74,32,1538009715,34.52721949
420,Mizque,BO,-17.94,-65.34,2013.471191,51.46,88,2.3,0,1538009715,28.33943112
421,Kollam,IN,8.88,76.6,18.72711182,78.8,88,4.7,40,1538008200,78.5849577
422,Santa Marinella,IT,42.04,11.87,15.61625195,59,54,8.05,0,1538007600,58.82067952
423,Lazaro Cardenas,MX,28.39,-105.62,1197.613281,86.02,36,5.88,76,1538009716,72.26787855
424,Pierre,US,44.37,-100.35,461.2383423,66.92,34,3.36,1,1538005980,61.62362779
425,Auki,SB,-8.77,160.7,40.97586823,77.29,100,12.82,92,1538009717,76.81947656
426,Waverley,NZ,-46.39,168.38,9,45.79,100,10.13,92,1538009717,45.68665354
427,Sibolga,ID,1.74,98.78,7.19822216,68.47,100,2.98,12,1538009717,68.38734325
428,Port-Cartier,CA,50.03,-66.88,27.90384674,53.6,93,6.93,90,1538007960,53.2795818
429,Evensk,RU,61.92,159.24,2,42.82,100,5.66,0,1538009718,42.79703412
430,Kieta,PG,-6.22,155.63,43.40310287,79.99,99,12.71,12,1538009718,79.49160477
431,Dapaong,TG,10.86,0.2,375.186676,75.22,93,5.55,12,1538009718,70.91175391
432,Longyearbyen,SJ,78.22,15.64,16.40800095,24.8,62,14.99,75,1538005800,24.61158791
433,Barra Patuca,HN,15.8,-84.28,0,83.32,93,8.79,68,1538009719,83.32
434,Lebanon,US,43.64,-72.25,182.5573425,75.02,84,6.93,90,1538007300,72.92370499
435,Yulara,AU,-25.24,130.99,505.0738831,77,9,6.93,0,1538006400,71.20026691
436,La Rioja,AR,-29.41,-66.86,511.805603,68.11,82,6.55,88,1538009720,62.23296697
437,College,US,64.86,-147.8,134.5596924,51.08,61,10.29,90,1538006280,49.53485913
438,Magadan,RU,59.56,150.8,91.50844574,48.2,66,5.77,0,1538006400,47.14921401
439,Beyneu,KZ,45.32,55.19,6.305776119,60.01,45,6.67,20,1538009720,59.93759115
440,Terme,TR,41.21,36.97,11.46488857,59,77,3.36,75,1538005800,58.86834937
441,Verkhoyansk,RU,67.55,133.39,140.8502502,27.16,85,5.99,48,1538009721,25.54262503
442,Parsons,US,37.34,-95.26,276.1384277,60.98,72,6.11,1,1538008500,57.809119
443,Cooma,AU,-36.24,149.13,802.0640259,51.64,86,4.32,20,1538009722,42.42994691
444,Chicama,PE,-7.84,-79.15,122.9064941,62.6,88,8.05,0,1538006400,61.1886721
445,Maple Creek,CA,49.91,-109.46,767,51.64,70,14.61,92,1538009723,42.83258502
446,Maraba,BR,-5.35,-49.1,99.46012878,84.2,74,4.7,40,1538006400,83.05790531
447,Nisia Floresta,BR,-6.09,-35.21,22.19331169,78.8,74,11.41,40,1538006400,78.54515553
448,Saint-Esteve,FR,42.71,2.84,47.20643616,55.4,87,2.24,0,1538008200,54.85793133
449,Aranos,NA,-24.14,19.11,1172.18689,61.09,23,5.55,0,1538009724,47.62984828
450,Meulaboh,ID,4.14,96.13,4.68382597,77.74,100,5.1,0,1538009724,77.68621591
451,Zhigansk,RU,66.77,123.37,53.01374054,41.11,100,2.98,92,1538009724,40.5012464
452,Dubrajpur,IN,23.79,87.38,96,78.1,89,3.09,24,1538009725,76.99763776
453,Weligama,LK,5.97,80.42,11.88711071,77.74,100,5.1,88,1538009725,77.60350102
454,Ulaangom,MN,49.98,92.07,933.6560059,30.58,62,4.65,24,1538009725,19.8588841
455,Bukachacha,RU,52.99,116.91,698.4407349,51.1,68,6.33,88,1538009725,43.07984695
456,Jega,NG,12.22,4.38,209.6648865,77.56,83,5.21,0,1538009726,75.15243069
457,Boa Vista,BR,2.82,-60.67,83.00708008,86,66,4.7,0,1538010000,85.04683468
458,Conceicao Do Araguaia,BR,-8.26,-49.26,160.5284271,77.83,90,1.97,32,1538009727,75.9866617
459,Loandjili,CG,-4.77,11.87,7.048597336,77,88,6.93,90,1538006400,76.91906138
460,Fortuna Foothills,US,32.66,-114.41,103.2132263,100.94,19,6.93,1,1538006220,99.75480871
461,Wyndham,NZ,-46.33,168.85,25,45.79,100,10.13,92,1538009728,45.5029265
462,Umm Kaddadah,SD,13.6,26.69,600,77.11,51,5.77,12,1538009728,70.220236
463,Balabac,PH,7.99,117.06,0,82.78,100,15.28,32,1538009728,82.78
464,Mortara,IT,45.25,8.74,109.2941818,50,81,2.24,0,1538007600,48.74498147
465,General Roca,AR,-39.03,-67.58,238,48.2,87,6.93,90,1538006400,45.46706028
466,Mirnyy,RU,56.57,36.46,136.0675507,41.02,98,29.93,92,1538009729,39.45754448
467,Kasangulu,CD,-4.59,15.17,387.6560059,78.8,74,11.41,44,1538006400,74.34856934
468,Taunggyi,MM,20.78,97.03,1411.434326,63.79,92,2.42,44,1538009730,47.58258432
469,Cururupu,BR,-1.82,-44.87,22.77344894,80.17,77,10.25,36,1538009730,79.90849385
470,Ossining,US,41.16,-73.86,76.16362,80.6,94,10.29,90,1538007960,79.72541772
471,Luyang,CN,31.88,117.26,18.54017067,66.2,77,8.95,0,1538006400,65.98710433
472,Beloha,MG,-25.17,45.06,154.5306702,59.56,83,3.09,0,1538009731,57.78553359
473,Borba,BR,-4.39,-59.59,23.25688934,80.71,87,1.74,24,1538009732,80.44294254
474,Burnie,AU,-41.05,145.91,5.653692722,55.42,92,13.82,0,1538009563,55.35507899
475,Moultrie,US,31.18,-83.79,96.54125977,82.04,94,6.55,1,1538008500,80.93142251
476,Poya,NC,-21.35,165.16,13.13593674,71.53,95,18.63,0,1538009732,71.37916083
477,Micheweni,TZ,-4.97,39.83,0.149521381,75.76,100,11.25,92,1538009733,75.75828305
478,Aksha,RU,50.28,113.29,734,47.77,63,4.54,92,1538009733,39.34152204
479,Penzance,GB,50.12,-5.53,0,50,100,10.29,5,1538005800,50
480,Praia,CV,14.92,-23.51,9.623711586,77,94,1.12,40,1538006400,76.8894915
481,Mezen,RU,65.85,44.24,15.00226402,43.09,99,11.25,92,1538009734,42.9177299
482,Sri Aman,MY,1.24,111.46,15.70781326,77,94,2.75,75,1538006400,76.81962812
483,Yar-Sale,RU,66.83,70.83,5.87911129,49.21,92,19.3,0,1538009500,49.14249052
484,Ostersund,SE,63.18,14.64,325.6100159,39.2,86,32.21,32,1538007600,35.46103972
485,Leh,IN,34.16,77.58,3462.49585,2.95,73,1.86,12,1538009735,-36.80963209
486,Mandalgovi,MN,45.76,106.27,1414.676636,37.96,82,26.57,44,1538009735,21.71535307
487,Viedma,AR,-40.81,-62.99,8.836444855,44.89,65,9.69,64,1538009736,44.78853163
488,Shingu,JP,33.72,135.99,7.792495251,64.4,100,5.82,75,1538006400,64.31051924
489,Morgan City,US,29.7,-91.21,2.17054534,78.08,98,5.21,40,1538008500,78.05507576
490,Coffs Harbour,AU,-30.3,153.13,9.273777962,66.2,68,10.29,40,1538008200,66.09350976
491,Naze,JP,28.37,129.48,252.3103333,80.6,83,28.86,75,1538006400,77.70273558
492,Elizabeth City,US,36.3,-76.22,1.571014762,82.04,83,8.23,1,1538007300,82.02196013
493,San Luis,AR,-33.3,-66.34,726,53.8,93,10.02,92,1538009637,45.46338556
494,Kaiyuan,CN,42.54,124.04,91,55.15,85,4.43,0,1538009738,54.10505246
495,Colares,PT,38.8,-9.45,60.28462219,75.2,64,4.7,0,1538008200,74.5077553
496,Roma,AU,-26.57,148.79,303.0905762,73.96,59,4.99,0,1538009739,70.4796291
497,Esperance,AU,-33.86,121.89,12.19911098,56.05,83,4.65,88,1538009739,55.90991834
498,Chabahar,IR,25.29,60.65,19.25930595,78.37,100,9.01,8,1538009740,78.14884655
499,Pacifica,US,37.61,-122.49,67.09947205,95,93,6.93,90,1538008500,94.22950079
500,North Platte,US,41.12,-100.77,854.1602783,69.98,28,14.99,1,1538005980,60.17172877
501,Santiago Del Estero,AR,-27.8,-64.26,186.3155518,74.77,81,7,8,1538009740,72.6305497
502,Mombasa,KE,-4.05,39.67,20.14019585,71.6,100,5.82,40,1538006400,71.36873134
503,Geelong,AU,-38.15,144.36,20.93056107,75.2,19,23.04,0,1538008200,74.95965562
504,North Bend,US,43.41,-124.22,2.032730341,66.02,60,18.34,1,1538007300,65.99665828
505,Road Town,VG,18.42,-64.62,51.84861755,82.94,78,10.29,40,1538006400,82.34462544
506,Tezu,IN,27.93,96.16,223.1427612,64.87,95,1.63,88,1538009742,62.30766506
507,Pathein,MM,16.78,94.73,1.477333307,77.02,93,3.42,24,1538009742,77.00303587
508,Bemidji,US,47.48,-94.89,418.508606,53.06,93,8.05,75,1538008500,48.25429079
509,Kamarion,GR,36.8,25.82,239.3355713,64.4,68,29.97,0,1538007600,61.651724
510,Kathmandu,NP,27.71,85.32,1298.577515,68,94,3.36,75,1538007600,53.08851231
511,Northam,AU,-31.65,116.67,151.3457489,57.2,67,11.41,40,1538008200,55.46210585
512,Calpulalpan,MX,19.59,-98.57,2587.928955,64.4,63,9.17,90,1538009160,34.68296708
513,Priekule,LV,56.45,21.6,70.07591248,59,82,17.22,24,1538007600,58.1953225
514,Adrar,DZ,27.87,-0.29,255.7840729,82.4,37,25.28,20,1538006400,79.46284684
515,Sampang,ID,-7.54,109.46,215.592392,75.58,97,6.78,64,1538009744,73.1043655
516,Pacific Grove,US,36.62,-121.92,39.01750946,66.2,83,5.82,75,1538008680,65.75196428
517,Vianopolis,BR,-16.74,-48.52,993.1077881,74.23,33,9.46,0,1538009745,62.82620286
518,Pindwara,IN,24.79,73.05,365.0542297,60.55,89,2.53,0,1538009745,56.35810418
519,Kabansk,RU,52.06,106.65,465.1297913,44.6,56,11.18,75,1538006400,39.25894251
520,Rodna,RO,47.42,24.82,539.3369141,26.89,83,1.97,20,1538009746,20.69682658
521,Yabassi,CM,4.46,9.97,65.56899261,77,100,2.24,75,1538006400,76.24707519
522,Jackson,US,35.61,-88.82,114.08992,69.8,73,6.93,90,1538008140,68.48991229
523,San Jose De Guanipa,VE,8.89,-64.17,265.3353882,75.85,96,2.98,44,1538009747,72.80316966
524,Masterton,NZ,-40.95,175.66,111,50.11,85,4.09,100,1538009747,48.83539366
525,Zhanaozen,KZ,43.35,52.85,201.3858948,58.12,61,9.24,0,1538009747,55.80749785
526,Ternate,ID,0.8,127.4,-23.96100044,82.06,98,13.04,20,1538009747,82.33514273
527,Alakurtti,RU,66.96,30.34,141,38.77,97,2.75,88,1538009748,37.15090546
528,Luena,AO,-11.78,19.91,1345.468994,67.21,86,2.75,92,1538009748,51.76006027
