,City,Country,Latitude,Longitude,Elevation,Max Temp,Humidity,Wind Speed,Cloudiness,Date
0,Kudahuvadhoo,MV,2.67,72.89,3.744376420974731,79.53,100,17.38,88,1538015148
1,Tuatapere,NZ,-46.13,167.69,25,45.96,100,7.31,92,1538015148
2,Tyrma,RU,50.04,132.17,331.091552734375,57.57,53,2.62,0,1538015148
3,Kodiak,US,39.95,-94.76,292.7092895507812,53.06,77,3.36,1,1538013180
4,Namatanai,PG,-3.66,152.44,0,84.84,94,14.36,80,1538015149
5,Qaanaaq,GL,77.48,-69.36,3.892444372177124,20.49,100,8.43,56,1538015149
6,Lavrentiya,RU,65.58,-170.99,2,43.71,94,11.23,56,1538015149
7,Provideniya,RU,64.42,-173.23,12.1826753616333,50,76,13.42,75,1538011800
8,Cheremshan,RU,54.66,51.51,126.569465637207,44.25,78,5.64,88,1538015150
9,Hilo,US,19.71,-155.08,16.21504974365234,86,67,11.41,75,1538013360
10,Owando,CG,-0.49,15.91,322.0026550292969,72.78,94,3.4,8,1538015150
11,Florida,UY,-34.1,-56.21,69,58.56,79,16.04,92,1538015151
12,Upernavik,GL,72.79,-56.15,0,34.53,100,20.29,76,1538015131
13,Tasiilaq,GL,65.61,-37.64,67.22933197021484,35.6,69,1.12,12,1538013000
14,San Cristobal,EC,-1.02,-79.44,97.5453109741211,62.43,98,2.17,92,1538015151
15,Ribeira Grande,PT,38.52,-28.7,8.446471214294434,75.03,95,23.64,68,1538015120
16,Rikitea,PF,-23.12,-134.97,10.88686656951904,70.89,100,21.52,88,1538015117
17,Novobiryusinskiy,RU,56.96,97.71,205.0311279296875,41.01,80,4.41,44,1538015152
18,Khatanga,RU,71.98,102.47,37.58133316040039,32.46,84,20.4,56,1538015152
19,Severo-Kurilsk,RU,50.68,156.12,11.84739112854004,50.91,86,14.58,0,1538015152
20,Arraial Do Cabo,BR,-22.97,-42.02,8.56655216217041,74.31,86,24.32,0,1538015128
21,Trapani,IT,38.02,12.54,2.709415197372437,68,52,8.05,0,1538013300
22,Shizunai,JP,42.33,142.37,0,60.36,80,8.66,92,1538015153
23,Haines Junction,CA,60.75,-137.51,594,40.2,60,1.83,36,1538015153
24,Hobart,AU,-42.88,147.33,9.245833396911621,64.4,36,13.87,20,1538013600
25,Pascagoula,US,30.37,-88.56,1.449782609939575,79.88,90,3.36,1,1538013360
26,Poum,NC,-20.23,164.02,0,73.95,98,12.68,36,1538015154
27,Nikolayevsk-Na-Amure,RU,53.14,140.72,23.20266723632812,58.83,67,8.1,0,1538015154
28,Atuona,PF,-9.8,-139.03,18.34078025817871,79.26,100,9.78,0,1538015155
29,Torbay,CA,47.66,-52.73,0,48.2,81,17.22,90,1538013600
30,Ushuaia,AR,-54.81,-68.31,0.5544959902763367,39.2,48,8.43,0,1538010000
31,Roald,NO,62.58,6.12,3.979628086090088,50,71,11.41,92,1538013000
32,Zabid,YE,14.2,44.5,2670.999755859375,43.17,51,3.62,0,1538015155
33,Busselton,AU,-33.64,115.35,0,60.09,100,10.45,44,1538015119
34,Alugan,PH,12.22,125.48,18.02488899230957,86.28,82,18.61,12,1538015156
35,New Norfolk,AU,-42.78,147.06,26.50635147094727,64.4,36,13.87,20,1538013600
36,Hermanus,ZA,-34.42,19.24,23.73564338684082,53.43,87,8.21,20,1538015124
37,Chamalieres,FR,45.78,3.06,445.567626953125,55.4,66,11.41,0,1538013600
38,Albany,AU,-35.02,117.88,45.38935852050781,57.21,75,8.21,32,1538015124
39,Condega,NI,13.36,-86.4,574.9152221679688,67.56,95,2.51,88,1538015157
40,Bobcaygeon,CA,44.54,-78.55,247,50,93,4.7,1,1538013600
41,Guerrero Negro,MX,27.97,-114.04,3.264889001846313,70.98,78,8.99,0,1538015157
42,Huarmey,PE,-10.07,-78.15,12,56.58,82,3.18,0,1538015157
43,Rawson,AR,-43.3,-65.11,9.689777374267578,42.36,68,10.56,76,1538015158
44,El Fuerte,MX,26.42,-108.62,82.82755279541016,86.64,56,4.07,0,1538015158
45,Klaksvik,FO,62.23,-6.59,0,44.6,87,5.82,92,1538013000
46,Iqaluit,CA,63.75,-68.52,28.18400001525879,32,100,12.75,40,1538013600
47,San Rafael,AR,-34.61,-68.33,699.7750854492188,43.26,87,2.95,88,1538015159
48,Plymouth,GB,50.37,-4.14,15.77253437042236,41,100,2.24,0,1538009400
49,Hithadhoo,MV,-0.6,73.08,1.010560035705566,81.33,100,16.82,80,1538015132
50,Constitucion,CL,-35.33,-72.42,50.14341354370117,53.61,96,4.41,92,1538015159
51,Estelle,US,32.87,-97.01,176.5110015869141,66.2,57,12.75,90,1538013300
52,Kapaa,US,22.08,-159.32,5.70594596862793,82.04,84,9.17,75,1538013360
53,Bluff,NZ,-46.6,168.33,40,51.27,96,11.9,12,1538015132
54,Prince Rupert,CA,54.32,-130.32,0,53.6,100,5.82,90,1538013600
55,Castro,CL,-42.48,-73.76,7.78806734085083,45.15,96,6.42,92,1538015160
56,Meghradzor,AM,40.61,44.65,1818.5947265625,60.8,59,4.7,32,1538011800
57,Butaritari,KI,3.07,172.79,8.440905570983887,83.94,100,6.98,8,1538015123
58,Cape Town,ZA,-33.93,18.42,26.87131690979004,57.2,93,23.04,75,1538013600
59,Grindavik,IS,63.84,-22.43,2.477333307266235,41,86,6.93,40,1538011800
60,Kahului,US,20.89,-156.47,1,87.98,70,11.41,40,1538014320
61,Port Elizabeth,ZA,-33.92,25.57,34.40129089355469,53.6,87,3.36,0,1538013600
62,Rivne,UA,50.62,26.25,188.7182159423828,48.84,59,16.82,88,1538015162
63,Punta Arenas,CL,-53.16,-70.91,19.48355484008789,33.8,80,4.7,0,1538010000
64,Ponta Do Sol,PT,32.67,-17.1,0,68,77,5.82,20,1538013600
65,Gamba,GA,-2.72,10.02,20.16933250427246,75.66,100,9.78,88,1538015163
66,Grand Gaube,MU,-20.01,57.66,16.13599967956543,71.6,78,11.41,40,1538013600
67,Thompson,CA,55.74,-97.86,205.96533203125,37.4,74,3.36,75,1538013600
